{"type":"FeatureCollection","features":[{"type":"Feature","properties":{"OBJECTID_1":85,"OBJECTID":163,"SCHID":"5300","NAME":"Roxbury Prep - Mission Hill","ADDRESS":"120 Fisher Avenue","TOWN_MAIL":"Roxbury","TOWN":"BOSTON","STATE":"MA","ZIP":"02120","PRINCIPAL":"Dana Lehman","PHONE":"617-566-2361","FAX":"617-566-2373","GRADES":"6,7,8","TYPE":"CHA"},"geometry":{"type":"Point","coordinates":[-71.10514315383564,42.32767574478358]}},{"type":"Feature","properties":{"OBJECTID_1":86,"OBJECTID":153,"SCHID":"5470","NAME":"Helen Davis Leadership Academy Charter Public School","ADDRESS":"23 Leonard Street","TOWN_MAIL":"Boston","TOWN":"BOSTON","STATE":"MA","ZIP":"02122","PRINCIPAL":"Karmala Sherwood","PHONE":"617-474-7950","FAX":"617-474-7957","GRADES":"6,7,8","TYPE":"CHA"},"geometry":{"type":"Point","coordinates":[-71.0587171011184,42.301402641896985]}},{"type":"Feature","properties":{"OBJECTID_1":87,"OBJECTID":1100,"SCHID":"00350950","NAME":"British School of Boston","ADDRESS":"416-420 Pond Street","TOWN_MAIL":"Jamaica Plain","TOWN":"BOSTON","STATE":"MA","ZIP":"02130","PRINCIPAL":"Bruce Robinson","PHONE":"617-522-2261","FAX":"617-522-0385","GRADES":"PK,K,1,2,3,4,5,6,7,8,9,10,11,12","TYPE":"PRI"},"geometry":{"type":"Point","coordinates":[-71.13015021140613,42.306592993626374]}},{"type":"Feature","properties":{"OBJECTID_1":88,"OBJECTID":206,"SCHID":"05230001","NAME":"EDCO Collaborative - EDCO YOUTH ALT","ADDRESS":"650 Beacon St , 3rd Floor","TOWN_MAIL":"Boston","TOWN":"BOSTON","STATE":"MA","ZIP":"02215","PRINCIPAL":" ","PHONE":"617-262-9562","FAX":"617-262-0098","GRADES":" ","TYPE":"COP"},"geometry":{"type":"Point","coordinates":[-71.09573938001613,42.3493464451882]}},{"type":"Feature","properties":{"OBJECTID_1":89,"OBJECTID":134,"SCHID":"5600","NAME":"Academy Of the Pacific Rim Charter Public School","ADDRESS":"1 Westinghouse Plaza","TOWN_MAIL":"Hyde Park","TOWN":"BOSTON","STATE":"MA","ZIP":"02136","PRINCIPAL":"Jenne Colasacco","PHONE":"617-361-0050","FAX":"617-361-0045","GRADES":"5,6,7,8,9,10,11,12","TYPE":"CHA"},"geometry":{"type":"Point","coordinates":[-71.1321319431371,42.24427045976492]}},{"type":"Feature","properties":{"OBJECTID_1":90,"OBJECTID":136,"SCHID":"5500","NAME":"Boston Collegiate Charter School (Middle and High School)","ADDRESS":"11 Mayhew Street","TOWN_MAIL":"Dorchester","TOWN":"BOSTON","STATE":"MA","ZIP":"02125","PRINCIPAL":"Tobey Jackson","PHONE":"617-265-1172","FAX":"617-265-1176","GRADES":"5,6,7,8,9,10,11,12","TYPE":"CHA"},"geometry":{"type":"Point","coordinates":[-71.06087154979001,42.32163975416063]}},{"type":"Feature","properties":{"OBJECTID_1":91,"OBJECTID":137,"SCHID":"5520","NAME":"Boston Preparatory Charter Public School","ADDRESS":"885 River Street","TOWN_MAIL":"Hyde Park","TOWN":"BOSTON","STATE":"MA","ZIP":"02136","PRINCIPAL":"Amanda Colley","PHONE":"617-333-6688","FAX":"617-333-6689","GRADES":"6,7,8,9,10","TYPE":"CHA"},"geometry":{"type":"Point","coordinates":[-71.10990804778221,42.26222755823128]}},{"type":"Feature","properties":{"OBJECTID_1":92,"OBJECTID":138,"SCHID":"5400","NAME":"Boston Renaissance Charter Public School","ADDRESS":"1415 Hyde Park Avenue","TOWN_MAIL":"Hyde Park","TOWN":"BOSTON","STATE":"MA","ZIP":"02136","PRINCIPAL":"Roger Harris","PHONE":"617-357-0900","FAX":"617-338-2647","GRADES":"K,1,2,3,4,5,6","TYPE":"CHA"},"geometry":{"type":"Point","coordinates":[-71.12682235376815,42.25037633508278]}},{"type":"Feature","properties":{"OBJECTID_1":93,"OBJECTID":143,"SCHID":"5440","NAME":"Codman Academy Charter Public School","ADDRESS":"637 Washington Street","TOWN_MAIL":"Dorchester","TOWN":"BOSTON","STATE":"MA","ZIP":"02124","PRINCIPAL":"Thabiti Brown","PHONE":"617-287-0700","FAX":"617-287-9064","GRADES":"9,10,11,12","TYPE":"CHA"},"geometry":{"type":"Point","coordinates":[-71.0719311839712,42.289448323888514]}},{"type":"Feature","properties":{"OBJECTID_1":95,"OBJECTID":149,"SCHID":"5450","NAME":"Edward Brooke Charter School - Roslindale","ADDRESS":"190 Cummins Highway","TOWN_MAIL":"Roslindale","TOWN":"BOSTON","STATE":"MA","ZIP":"02131","PRINCIPAL":"Jon Clark","PHONE":"617-325-7977","FAX":"617-325-2260","GRADES":"K,1,2,3,5,6,7,8","TYPE":"CHA"},"geometry":{"type":"Point","coordinates":[-71.1220041750056,42.28169859504711]}},{"type":"Feature","properties":{"OBJECTID_1":96,"OBJECTID":151,"SCHID":"5490","NAME":"Excel Academy Charter School - East Boston","ADDRESS":"58 Moore St.","TOWN_MAIL":"East Boston","TOWN":"BOSTON","STATE":"MA","ZIP":"02128","PRINCIPAL":"Komal Bhasin","PHONE":"617-561-1371","FAX":"617-561-1378","GRADES":"5,6,7,8","TYPE":"CHA"},"geometry":{"type":"Point","coordinates":[-71.01867085360483,42.38279299326808]}},{"type":"Feature","properties":{"OBJECTID_1":97,"OBJECTID":157,"SCHID":"5431","NAME":"MATCH Charter Public High School","ADDRESS":"1001 Commonwealth Avenue","TOWN_MAIL":"Boston","TOWN":"BOSTON","STATE":"MA","ZIP":"02215","PRINCIPAL":"Jorge Miranda","PHONE":"617-232-0300","FAX":"617-232-2838","GRADES":"9,10,11,12","TYPE":"CHA"},"geometry":{"type":"Point","coordinates":[-71.12098465017101,42.35215801634913]}},{"type":"Feature","properties":{"OBJECTID_1":98,"OBJECTID":159,"SCHID":"5700","NAME":"Neighborhood House Charter School","ADDRESS":"21 Queen Street","TOWN_MAIL":"Dorchester","TOWN":"BOSTON","STATE":"MA","ZIP":"02122","PRINCIPAL":"Kevin Andrews","PHONE":"617-825-0703","FAX":"617-825-1829","GRADES":"PK,K,1,2,3,4,5,6,7,8","TYPE":"CHA"},"geometry":{"type":"Point","coordinates":[-71.05347197033385,42.293344261607544]}},{"type":"Feature","properties":{"OBJECTID_1":99,"OBJECTID":166,"SCHID":"8027","NAME":"Cathedral High","ADDRESS":"74 Union Park","TOWN_MAIL":"Boston","TOWN":"BOSTON","STATE":"MA","ZIP":"02118","PRINCIPAL":"Christol Murch","PHONE":"617-542-2325","FAX":"617-542-1745","GRADES":"9,10,11,12","TYPE":"PRI"},"geometry":{"type":"Point","coordinates":[-71.06884782754541,42.341110184631596]}},{"type":"Feature","properties":{"OBJECTID_1":100,"OBJECTID":1521,"SCHID":"00350702","NAME":"The Advent School","ADDRESS":"15 Brimmer Street","TOWN_MAIL":"Boston","TOWN":"BOSTON","STATE":"MA","ZIP":"02108","PRINCIPAL":"Nicole A. DuFauchard","PHONE":"617-742-0520","FAX":"--","GRADES":"K,1,2,3,4,5,6","TYPE":"PRI"},"geometry":{"type":"Point","coordinates":[-71.07204551108894,42.35835596719615]}},{"type":"Feature","properties":{"OBJECTID_1":101,"OBJECTID":186,"SCHID":"8168","NAME":"St John Elementary","ADDRESS":"9 Moon","TOWN_MAIL":"Boston","TOWN":"BOSTON","STATE":"MA","ZIP":"02113","PRINCIPAL":"Karen McLaughlin","PHONE":"617-227-3143","FAX":"617-227-2188","GRADES":"PK,K,1,2,3,4,5,6,7,8","TYPE":"PRI"},"geometry":{"type":"Point","coordinates":[-71.0528619749265,42.36388729104435]}},{"type":"Feature","properties":{"OBJECTID_1":102,"OBJECTID":1128,"SCHID":"00350705","NAME":"Berea SDA Academy","ADDRESS":"800 Morton St.","TOWN_MAIL":"Mattapan","TOWN":"BOSTON","STATE":"MA","ZIP":"02126","PRINCIPAL":"Grafton Jones","PHONE":"617-436-8301","FAX":"617-436-8304","GRADES":"PK,K,1,2,3,4,5,6,7,8","TYPE":"PRI"},"geometry":{"type":"Point","coordinates":[-71.08771498626551,42.282657210298964]}},{"type":"Feature","properties":{"OBJECTID_1":103,"OBJECTID":178,"SCHID":"8081","NAME":"Pope John Paul II Academy (Lower MIlls)","ADDRESS":"2200 Dorchester Avenue","TOWN_MAIL":"Dorchester","TOWN":"BOSTON","STATE":"MA","ZIP":"02124","PRINCIPAL":"George Milot","PHONE":"617-265-0019","FAX":"--","GRADES":"PK,K,1,2,3,4,5,6,7,8","TYPE":"PRI"},"geometry":{"type":"Point","coordinates":[-71.06717431243052,42.274440635548906]}},{"type":"Feature","properties":{"OBJECTID_1":104,"OBJECTID":179,"SCHID":"8064","NAME":"Pope John Paul II Academy (Mattapan)","ADDRESS":"120 Babson","TOWN_MAIL":"Mattapan","TOWN":"BOSTON","STATE":"MA","ZIP":"02126","PRINCIPAL":"Kathleen Aldridge","PHONE":"617-265-0019","FAX":"--","GRADES":"PK,K,1,2,3,4,5,6,7,8","TYPE":"PRI"},"geometry":{"type":"Point","coordinates":[-71.0922219845921,42.27076677124837]}},{"type":"Feature","properties":{"OBJECTID_1":105,"OBJECTID":180,"SCHID":"8065","NAME":"Pope John Paul II Academy (Neponset)","ADDRESS":"239 Neponset Avenue","TOWN_MAIL":"Dorchester","TOWN":"BOSTON","STATE":"MA","ZIP":"02122","PRINCIPAL":"Kate Brandley","PHONE":"617-265-0019","FAX":"--","GRADES":"PK,K,1,2,3,4,5,6,7,8","TYPE":"PRI"},"geometry":{"type":"Point","coordinates":[-71.04952146954201,42.290447712468826]}},{"type":"Feature","properties":{"OBJECTID_1":106,"OBJECTID":182,"SCHID":"8103","NAME":"Saint Joseph Preparatory High School","ADDRESS":"617 Cambridge","TOWN_MAIL":"Brighton","TOWN":"BOSTON","STATE":"MA","ZIP":"02135","PRINCIPAL":"Tom Nunan","PHONE":"617-254-8383","FAX":"617-254-0240","GRADES":"9,10,11,12","TYPE":"PRI"},"geometry":{"type":"Point","coordinates":[-71.1438557890931,42.3523608174706]}},{"type":"Feature","properties":{"OBJECTID_1":107,"OBJECTID":183,"SCHID":"8071","NAME":"South Boston Catholic Academy","ADDRESS":"866 East Broadway","TOWN_MAIL":"South Boston","TOWN":"BOSTON","STATE":"MA","ZIP":"02127","PRINCIPAL":"Nancy Carr","PHONE":"617-268-2326","FAX":"--","GRADES":"PK,K,1,2,3,4,5","TYPE":"PRI"},"geometry":{"type":"Point","coordinates":[-71.02966389392881,42.33605274356192]}},{"type":"Feature","properties":{"OBJECTID_1":110,"OBJECTID":1523,"SCHID":"00350724","NAME":"Commonwealth School","ADDRESS":"151 Commonwealth Avenue","TOWN_MAIL":"Boston","TOWN":"BOSTON","STATE":"MA","ZIP":"02116","PRINCIPAL":"William Wharton","PHONE":"617-266-7525","FAX":"--","GRADES":"9,10,11,12","TYPE":"PRI"},"geometry":{"type":"Point","coordinates":[-71.07810276101053,42.35233118715369]}},{"type":"Feature","properties":{"OBJECTID_1":111,"OBJECTID":1524,"SCHID":"00350765","NAME":"The Learning Project","ADDRESS":"107 Marlborough Street","TOWN_MAIL":"Boston","TOWN":"BOSTON","STATE":"MA","ZIP":"02115","PRINCIPAL":"Michael Mccord","PHONE":"617-266-8427","FAX":"--","GRADES":"K,1,2,3,4,5,6","TYPE":"PRI"},"geometry":{"type":"Point","coordinates":[-71.07724592419734,42.3535181347427]}},{"type":"Feature","properties":{"OBJECTID_1":112,"OBJECTID":1525,"SCHID":"00350794","NAME":"The Newman School","ADDRESS":"247 Marlborough Street","TOWN_MAIL":"Boston","TOWN":"BOSTON","STATE":"MA","ZIP":"02116","PRINCIPAL":"John Colahan","PHONE":"617-267-4530","FAX":"617-267-7070","GRADES":"9,10,11,12","TYPE":"PRI"},"geometry":{"type":"Point","coordinates":[-71.08239985587616,42.35208974889993]}},{"type":"Feature","properties":{"OBJECTID_1":113,"OBJECTID":169,"SCHID":"8034","NAME":"E Boston Central Catholic","ADDRESS":"69 London","TOWN_MAIL":"East Boston","TOWN":"BOSTON","STATE":"MA","ZIP":"02128","PRINCIPAL":"Maryann Manfredonia","PHONE":"617-567-7456","FAX":"--","GRADES":"PK,K,1,2,3,4,5,6,7,8","TYPE":"PRI"},"geometry":{"type":"Point","coordinates":[-71.04006083784222,42.371537082961865]}},{"type":"Feature","properties":{"OBJECTID_1":114,"OBJECTID":1768,"SCHID":"00350785","NAME":"Neighborhood School","ADDRESS":"34 Peter Parley Rd","TOWN_MAIL":"Jamaica Plain","TOWN":"BOSTON","STATE":"MA","ZIP":"02130","PRINCIPAL":"Tricia Morrow","PHONE":"617-522-0880","FAX":"--","GRADES":"PK,K,1,2,3,4,5,6","TYPE":"PRI"},"geometry":{"type":"Point","coordinates":[-71.10069499957791,42.31086500359938]}},{"type":"Feature","properties":{"OBJECTID_1":116,"OBJECTID":1770,"SCHID":"00350882","NAME":"St Mary Of Czestochowa","ADDRESS":"655 Dorchester Avenue","TOWN_MAIL":"South Boston","TOWN":"BOSTON","STATE":"MA","ZIP":"02127","PRINCIPAL":"Marie Laclaire","PHONE":"617-268-3766","FAX":"--","GRADES":"PK,K,1,2,3,4,5,6,7,8","TYPE":"PRI"},"geometry":{"type":"Point","coordinates":[-71.0577789005658,42.32771000749867]}},{"type":"Feature","properties":{"OBJECTID_1":117,"OBJECTID":1771,"SCHID":"00350812","NAME":"Paige Academy","ADDRESS":"28 Highland Avenue","TOWN_MAIL":"Roxbury","TOWN":"BOSTON","STATE":"MA","ZIP":"02119","PRINCIPAL":"Angela Cook","PHONE":"617-445-6969","FAX":"--","GRADES":"PK,K,1","TYPE":"PRI"},"geometry":{"type":"Point","coordinates":[-71.09312160874568,42.32877567689976]}},{"type":"Feature","properties":{"OBJECTID_1":118,"OBJECTID":175,"SCHID":"8588","NAME":"Nativity Prep School","ADDRESS":"39 Lamartine Street","TOWN_MAIL":"Jamaica Plain","TOWN":"BOSTON","STATE":"MA","ZIP":"02130-0947","PRINCIPAL":"Dan Roy","PHONE":"857-728-0031","FAX":"857-728-0037","GRADES":"5,6,7,8","TYPE":"PRI"},"geometry":{"type":"Point","coordinates":[-71.10172741155208,42.32155690951157]}},{"type":"Feature","properties":{"OBJECTID_1":119,"OBJECTID":174,"SCHID":"","NAME":"Mission Grammar School","ADDRESS":"94 St Alphonsus","TOWN_MAIL":"Roxbury","TOWN":"BOSTON","STATE":"MA","ZIP":"02120","PRINCIPAL":"Aliece Dutson","PHONE":"617-442-2660","FAX":"--","GRADES":"K,1,2,3,4,5,6,7,8","TYPE":"PRI"},"geometry":{"type":"Point","coordinates":[-71.10089052693127,42.333139238901964]}},{"type":"Feature","properties":{"OBJECTID_1":120,"OBJECTID":181,"SCHID":"8060","NAME":"Sacred Heart Elementary","ADDRESS":"1035 Canterbury","TOWN_MAIL":"Roslindale","TOWN":"BOSTON","STATE":"MA","ZIP":"02131","PRINCIPAL":"Monica Haldiman","PHONE":"617-323-2500","FAX":"617-325-7151","GRADES":"PK,K,1,2,3,4,5,6,7,8","TYPE":"PRI"},"geometry":{"type":"Point","coordinates":[-71.12228117149786,42.2783133667873]}},{"type":"Feature","properties":{"OBJECTID_1":122,"OBJECTID":185,"SCHID":"8077","NAME":"St Columbkille Elem","ADDRESS":"25 Arlington Street","TOWN_MAIL":"Brighton","TOWN":"BOSTON","STATE":"MA","ZIP":"02135","PRINCIPAL":"Mary Battles","PHONE":"617-254-3110","FAX":"617-254-3161","GRADES":"PK,K,1,2,3,4,5,6,7,8","TYPE":"PRI"},"geometry":{"type":"Point","coordinates":[-71.15298745519098,42.3524414583256]}},{"type":"Feature","properties":{"OBJECTID_1":123,"OBJECTID":167,"SCHID":"8028","NAME":"Catholic Memorial","ADDRESS":"235 Baker Street","TOWN_MAIL":"West Roxbury","TOWN":"BOSTON","STATE":"MA","ZIP":"02132","PRINCIPAL":"Richard Chisholm","PHONE":"617-469-8000","FAX":"617-325-0888","GRADES":"7,8,9,10,11,12","TYPE":"PRI"},"geometry":{"type":"Point","coordinates":[-71.1657808245134,42.277700929720645]}},{"type":"Feature","properties":{"OBJECTID_1":124,"OBJECTID":1851,"SCHID":"00350808","NAME":"Roxbury Latin School","ADDRESS":"101 St Theresa Avenue","TOWN_MAIL":"West Roxbury","TOWN":"BOSTON","STATE":"MA","ZIP":"02132","PRINCIPAL":"F Jarvis","PHONE":"617-325-4920","FAX":"--","GRADES":"7,8,9,10,11,12","TYPE":"PRI"},"geometry":{"type":"Point","coordinates":[-71.15708861069812,42.27612507889827]}},{"type":"Feature","properties":{"OBJECTID_1":125,"OBJECTID":1883,"SCHID":"00350778","NAME":"Mother Caroline Academy","ADDRESS":"515 Blue Hill Avenue","TOWN_MAIL":"Dorchester","TOWN":"BOSTON","STATE":"MA","ZIP":"02121","PRINCIPAL":"Frances Butler","PHONE":"617-427-1177","FAX":"617-427-7788","GRADES":"5,6,7,8","TYPE":"PRI"},"geometry":{"type":"Point","coordinates":[-71.08439494438339,42.3074991516821]}},{"type":"Feature","properties":{"OBJECTID_1":126,"OBJECTID":1885,"SCHID":"00350740","NAME":"Hollow Reed School","ADDRESS":"93 Sedgewick Street","TOWN_MAIL":"Jamaica Plain","TOWN":"BOSTON","STATE":"MA","ZIP":"02130","PRINCIPAL":"Khabria Brown","PHONE":"617-524-9004","FAX":"--","GRADES":"PK,K","TYPE":"PRI"},"geometry":{"type":"Point","coordinates":[-71.11202473486657,42.30824257598841]}},{"type":"Feature","properties":{"OBJECTID_1":127,"OBJECTID":1886,"SCHID":"00350749","NAME":"Italian Home For Children","ADDRESS":"1125 Centre Street","TOWN_MAIL":"Jamaica Plain","TOWN":"BOSTON","STATE":"MA","ZIP":"02130","PRINCIPAL":"Jane A Zopatti","PHONE":"617-524-3116","FAX":"617-983-5372","GRADES":"1,2,3,4,5,6,7,8","TYPE":"SPE"},"geometry":{"type":"Point","coordinates":[-71.12664191155056,42.30230370442345]}},{"type":"Feature","properties":{"OBJECTID_1":128,"OBJECTID":1887,"SCHID":"00350947","NAME":"Parkside Christian Academy","ADDRESS":"670 Washington Street","TOWN_MAIL":"Dorchester","TOWN":"BOSTON","STATE":"MA","ZIP":"02124","PRINCIPAL":"John Mallory","PHONE":"617-522-1841","FAX":"--","GRADES":"PK,K,1,2,3,4,5,6,7,8","TYPE":"PRI"},"geometry":{"type":"Point","coordinates":[-71.07094096839515,42.28834248337708]}},{"type":"Feature","properties":{"OBJECTID_1":129,"OBJECTID":1888,"SCHID":"00350795","NAME":"New Beginnings Academy","ADDRESS":"14 Everett Street","TOWN_MAIL":"Hyde Park","TOWN":"BOSTON","STATE":"MA","ZIP":"02136","PRINCIPAL":"Cynthia Schroder","PHONE":"617-364-6767","FAX":"617-364-3383","GRADES":"PK,K,1,2,3,4,5,6,10,12","TYPE":"PRI"},"geometry":{"type":"Point","coordinates":[-71.1216137097602,42.257323148315145]}},{"type":"Feature","properties":{"OBJECTID_1":132,"OBJECTID":2246,"SCHID":"00350805","NAME":"Park Street School","ADDRESS":"67 Brimmer Street","TOWN_MAIL":"Boston","TOWN":"BOSTON","STATE":"MA","ZIP":"02108","PRINCIPAL":"Tracy Bradley","PHONE":"617-523-7577","FAX":"617-523-7576","GRADES":"K,1,2,3,4,7","TYPE":"PRI"},"geometry":{"type":"Point","coordinates":[-71.07171604758146,42.35640417191025]}},{"type":"Feature","properties":{"OBJECTID_1":133,"OBJECTID":2304,"SCHID":"00350768","NAME":"Manville School","ADDRESS":"53 Parker Hill Ave","TOWN_MAIL":"Boston","TOWN":"BOSTON","STATE":"MA","ZIP":"02120","PRINCIPAL":"Hanna Savransky","PHONE":"617-232-8390","FAX":"617-232-8399","GRADES":"1,2,3,4,5,6,7,8,9,10,11","TYPE":"SPE"},"geometry":{"type":"Point","coordinates":[-71.11004982229458,42.330978848436786]}},{"type":"Feature","properties":{"OBJECTID_1":134,"OBJECTID":168,"SCHID":"8024","NAME":"Cristo Rey Boston High School","ADDRESS":"100 Savin Hill Avenue","TOWN_MAIL":"Dorchester","TOWN":"BOSTON","STATE":"MA","ZIP":"02125","PRINCIPAL":"Elizabeth Degnan","PHONE":"617-825-2580","FAX":"617-825-2613","GRADES":"9,10,11,12","TYPE":"PRI"},"geometry":{"type":"Point","coordinates":[-71.05393062118968,42.3123143477046]}},{"type":"Feature","properties":{"OBJECTID_1":135,"OBJECTID":1939,"SCHID":"00350811","NAME":"Shaloh House Jewish Day School","ADDRESS":"29 Chestnut Hill Avenue","TOWN_MAIL":"Brighton","TOWN":"BOSTON","STATE":"MA","ZIP":"02135","PRINCIPAL":"Don Rodkin","PHONE":"617-787-2200","FAX":"617-787-4693","GRADES":"PK,K,1,2,3,4","TYPE":"PRI"},"geometry":{"type":"Point","coordinates":[-71.15429833362529,42.34788427836098]}},{"type":"Feature","properties":{"OBJECTID_1":136,"OBJECTID":172,"SCHID":"8037","NAME":"Holy Name Elementary","ADDRESS":"535 W Roxbury Pkwy","TOWN_MAIL":"West Roxbury","TOWN":"BOSTON","STATE":"MA","ZIP":"02132","PRINCIPAL":"Robert Arciero","PHONE":"617-325-9338","FAX":"--","GRADES":"PK,K,1,2,3,4,5,6,7,8","TYPE":"PRI"},"geometry":{"type":"Point","coordinates":[-71.14845266040406,42.288069679060314]}},{"type":"Feature","properties":{"OBJECTID_1":137,"OBJECTID":1943,"SCHID":"00350824","NAME":"St Anne Elementary","ADDRESS":"20 Como Rd","TOWN_MAIL":"Hyde Park","TOWN":"BOSTON","STATE":"MA","ZIP":"02136","PRINCIPAL":"Jane Trumpis","PHONE":"617-361-3563","FAX":"--","GRADES":"K,1,2,3,4,5,6,7,8","TYPE":"PRI"},"geometry":{"type":"Point","coordinates":[-71.13697903002705,42.24014225450446]}},{"type":"Feature","properties":{"OBJECTID_1":138,"OBJECTID":188,"SCHID":"8096","NAME":"St Theresa Elementary","ADDRESS":"40 St Theresa Avenue","TOWN_MAIL":"West Roxbury","TOWN":"BOSTON","STATE":"MA","ZIP":"02132","PRINCIPAL":"Virginia Kelleher","PHONE":"617-323-1050","FAX":"617-323-8118","GRADES":"PK,K,1,2,3,4,5,6,7,8","TYPE":"PRI"},"geometry":{"type":"Point","coordinates":[-71.15794424219891,42.278304108968875]}},{"type":"Feature","properties":{"OBJECTID_1":140,"OBJECTID":184,"SCHID":"8070","NAME":"St Brendan Elementary","ADDRESS":"29 Rita Rd","TOWN_MAIL":"Dorchester","TOWN":"BOSTON","STATE":"MA","ZIP":"02124","PRINCIPAL":"Ida Ring","PHONE":"617-282-3388","FAX":"--","GRADES":"K,1,2,3,4,5,6,7,8","TYPE":"PRI"},"geometry":{"type":"Point","coordinates":[-71.05124532231746,42.28191839758402]}},{"type":"Feature","properties":{"OBJECTID_1":142,"OBJECTID":2382,"SCHID":"00350890","NAME":"St Peter Academy","ADDRESS":"371 W Fourth Street","TOWN_MAIL":"South Boston","TOWN":"BOSTON","STATE":"MA","ZIP":"02127","PRINCIPAL":"David Romanosky","PHONE":"617-268-0750","FAX":"--","GRADES":"PK,K,1,2,3,4,5,6,7,8","TYPE":"PRI"},"geometry":{"type":"Point","coordinates":[-71.03970018426114,42.333224209866145]}},{"type":"Feature","properties":{"OBJECTID_1":144,"OBJECTID":2389,"SCHID":"00350729","NAME":"Epiphany School","ADDRESS":"154 Centre Street","TOWN_MAIL":"Dorchester","TOWN":"BOSTON","STATE":"MA","ZIP":"02124","PRINCIPAL":"John Finley","PHONE":"617-326-0425","FAX":"617-326-0424","GRADES":"5,6,7,8","TYPE":"PRI"},"geometry":{"type":"Point","coordinates":[-71.06613746052243,42.29256471798974]}},{"type":"Feature","properties":{"OBJECTID_1":145,"OBJECTID":2426,"SCHID":"00350760","NAME":"The Kingsley Montessori School","ADDRESS":"30 Fairfield Street","TOWN_MAIL":"Boston","TOWN":"BOSTON","STATE":"MA","ZIP":"02116","PRINCIPAL":"Carole Forbes","PHONE":"617-226-4900","FAX":"--","GRADES":"PK,K,1,2,3,4,5,6","TYPE":"PRI"},"geometry":{"type":"Point","coordinates":[-71.08221906072744,42.35029859385851]}},{"type":"Feature","properties":{"OBJECTID_1":146,"OBJECTID":2427,"SCHID":"00350910","NAME":"The Winsor School","ADDRESS":"103 Pilgrim Rd","TOWN_MAIL":"Boston","TOWN":"BOSTON","STATE":"MA","ZIP":"02215","PRINCIPAL":"Carolyn McClintock","PHONE":"617-735-9500","FAX":"--","GRADES":"5,6,7,8,9,10,11,12","TYPE":"PRI"},"geometry":{"type":"Point","coordinates":[-71.10754719584388,42.34103155297646]}},{"type":"Feature","properties":{"OBJECTID_1":147,"OBJECTID":2445,"SCHID":"00350813","NAME":"Boston University Academy","ADDRESS":"1 University Road","TOWN_MAIL":"Boston","TOWN":"BOSTON","STATE":"MA","ZIP":"02215","PRINCIPAL":"James Berkman","PHONE":"617-353-9000","FAX":"617-353-8999","GRADES":"9,10,11,12","TYPE":"PRI"},"geometry":{"type":"Point","coordinates":[-71.10979152119128,42.35102890669455]}},{"type":"Feature","properties":{"OBJECTID_1":148,"OBJECTID":2517,"SCHID":"00350758","NAME":"Kennedy Day School","ADDRESS":"30 Warren St, c/o Franciscan Childrens Hospital","TOWN_MAIL":"Brighton","TOWN":"BOSTON","STATE":"MA","ZIP":"02135","PRINCIPAL":"Bonnie Paulino Lanen","PHONE":"617-254-3800","FAX":"617-779-1639","GRADES":"PK,K,1,2,3,4,5,6,7,8,9,10,11,12","TYPE":"SPE"},"geometry":{"type":"Point","coordinates":[-71.1425451850529,42.3499809464406]}},{"type":"Feature","properties":{"OBJECTID_1":149,"OBJECTID":165,"SCHID":"8023","NAME":"Boston College High","ADDRESS":"150 Morrissey Blvd","TOWN_MAIL":"Dorchester","TOWN":"BOSTON","STATE":"MA","ZIP":"02125","PRINCIPAL":"Stephen Hughes","PHONE":"617-474-5010","FAX":"617-474-5015","GRADES":"9,10,11,12","TYPE":"PRI"},"geometry":{"type":"Point","coordinates":[-71.04564148342476,42.31674313137172]}},{"type":"Feature","properties":{"OBJECTID_1":150,"OBJECTID":2744,"SCHID":"00460865","NAME":"Boston Trinity Academy","ADDRESS":"17 Hale St.","TOWN_MAIL":"Boston","TOWN":"BOSTON","STATE":"MA","ZIP":"02136","PRINCIPAL":"Timothy Wiens","PHONE":"617-364-3700","FAX":"617-364-3800","GRADES":"6,7,8,9,10,11,12","TYPE":"PRI"},"geometry":{"type":"Point","coordinates":[-71.1286870586597,42.2592390768062]}},{"type":"Feature","properties":{"OBJECTID_1":151,"OBJECTID":2745,"SCHID":"00490855","NAME":"German International School Boston","ADDRESS":"57 Holton Street","TOWN_MAIL":"Allston","TOWN":"BOSTON","STATE":"MA","ZIP":"02134","PRINCIPAL":"Christian Nitschke","PHONE":"617-783-2600","FAX":"617-783-2605","GRADES":"PK,K,1,2,3,4,5,6,7","TYPE":"PRI"},"geometry":{"type":"Point","coordinates":[-71.13610570599695,42.3604098312556]}},{"type":"Feature","properties":{"OBJECTID_1":152,"OBJECTID":177,"SCHID":"8089","NAME":"Pope John Paul II Academy (Columbia Road)","ADDRESS":"790 Columbia Road","TOWN_MAIL":"Dorchester","TOWN":"BOSTON","STATE":"MA","ZIP":"02125","PRINCIPAL":"Claire Sheridan","PHONE":"617-265-0019","FAX":"--","GRADES":"PK,K,1,2,3,4,5,6,7,8","TYPE":"PRI"},"geometry":{"type":"Point","coordinates":[-71.05800497219552,42.32055813640253]}},{"type":"Feature","properties":{"OBJECTID_1":153,"OBJECTID":141,"SCHID":"5100","NAME":"City On A Hill Charter Public School - Circuit Street","ADDRESS":"58 Circuit Street","TOWN_MAIL":"Roxbury","TOWN":"BOSTON","STATE":"MA","ZIP":"02119","PRINCIPAL":"Cristin Berry","PHONE":"617-445-1515","FAX":"617-445-9153","GRADES":"9,10,11,12","TYPE":"CHA"},"geometry":{"type":"Point","coordinates":[-71.0876363712996,42.3240253733143]}},{"type":"Feature","properties":{"OBJECTID_1":154,"OBJECTID":2761,"SCHID":"00350872","NAME":"St Matthew Elementary","ADDRESS":"33 Stanton Street","TOWN_MAIL":"Dorchester","TOWN":"BOSTON","STATE":"MA","ZIP":"02124","PRINCIPAL":"Mary Lanata","PHONE":"617-825-7955","FAX":"--","GRADES":"PK,K,1,2,3,4,5,6,7,8","TYPE":"PRI"},"geometry":{"type":"Point","coordinates":[-71.08019251876601,42.2849246358832]}},{"type":"Feature","properties":{"OBJECTID_1":155,"OBJECTID":2764,"SCHID":"00350791","NAME":"The Knight Children's Center","ADDRESS":"161 South Huntington Ave","TOWN_MAIL":"Jamaica Plain","TOWN":"BOSTON","STATE":"MA","ZIP":"02130","PRINCIPAL":"Pamela M Nolan","PHONE":"617-264-5349","FAX":"617-232-7925","GRADES":"2,3,4,5,6,7,8,9","TYPE":"SPE"},"geometry":{"type":"Point","coordinates":[-71.11167788204459,42.32705014162584]}},{"type":"Feature","properties":{"OBJECTID_1":156,"OBJECTID":2767,"SCHID":"00350720","NAME":"Children's Learning Academy","ADDRESS":"6 Basile Street","TOWN_MAIL":"Roslindale","TOWN":"BOSTON","STATE":"MA","ZIP":"02131","PRINCIPAL":"Francis Campbell","PHONE":"617-327-2538","FAX":"--","GRADES":"PK,K,1,2,3,4,5,6","TYPE":"PRI"},"geometry":{"type":"Point","coordinates":[-71.12672301222823,42.28698909894766]}},{"type":"Feature","properties":{"OBJECTID_1":157,"OBJECTID":135,"SCHID":"5501","NAME":"Boston Collegiate Charter School (Lower School)","ADDRESS":"215 Sydney Street","TOWN_MAIL":"Dorchester","TOWN":"BOSTON","STATE":"MA","ZIP":"02125","PRINCIPAL":" ","PHONE":" ","FAX":" ","GRADES":" ","TYPE":"CHA"},"geometry":{"type":"Point","coordinates":[-71.05241756693142,42.31882738384578]}},{"type":"Feature","properties":{"OBJECTID_1":158,"OBJECTID":156,"SCHID":"5432","NAME":"MATCH Charter Community Day School","ADDRESS":"100 Poydras Street","TOWN_MAIL":"Mattapan","TOWN":"BOSTON","STATE":"MA","ZIP":"02126","PRINCIPAL":" ","PHONE":"617-983-0300 ","FAX":"617-983-0332","GRADES":"PK, K, 1, 2, 3, 4","TYPE":"CHA"},"geometry":{"type":"Point","coordinates":[-71.10668183044106,42.26164258859289]}},{"type":"Feature","properties":{"OBJECTID_1":160,"OBJECTID":158,"SCHID":"5430","NAME":"MATCH Charter Public Middle School","ADDRESS":"215 Forest Hills St.","TOWN_MAIL":"Jamaica Plain","TOWN":"BOSTON","STATE":"MA","ZIP":"02130","PRINCIPAL":" ","PHONE":"857-203-9668","FAX":"857-203-9666","GRADES":"5,6,7,8","TYPE":"CHA"},"geometry":{"type":"Point","coordinates":[-71.10376736956965,42.30511277956014]}},{"type":"Feature","properties":{"OBJECTID_1":163,"OBJECTID":148,"SCHID":"5451","NAME":"Edward Brooke Charter School - Mattapan","ADDRESS":"150 American Legion Highway","TOWN_MAIL":"Dorchester","TOWN":"BOSTON","STATE":"MA","ZIP":"02124","PRINCIPAL":" ","PHONE":" ","FAX":" ","GRADES":" ","TYPE":"CHA"},"geometry":{"type":"Point","coordinates":[-71.09249544305268,42.29482976239338]}},{"type":"Feature","properties":{"OBJECTID_1":165,"OBJECTID":160,"SCHID":"5302","NAME":"Roxbury Prep - Dorchester","ADDRESS":"206 Magnolia St.","TOWN_MAIL":"Dorchester","TOWN":"BOSTON","STATE":"MA","ZIP":"02121","PRINCIPAL":"Dana Lehman","PHONE":"617-858-2300","FAX":"617-275-5760","GRADES":"6,7,8","TYPE":"CHA"},"geometry":{"type":"Point","coordinates":[-71.07364952921813,42.31136828380119]}},{"type":"Feature","properties":{"OBJECTID_1":166,"OBJECTID":147,"SCHID":"5452","NAME":"Edward Brooke Charter School - East Boston","ADDRESS":"94 Horace Street","TOWN_MAIL":"East Boston","TOWN":"BOSTON","STATE":"MA","ZIP":"02128","PRINCIPAL":" ","PHONE":" ","FAX":" ","GRADES":" ","TYPE":"CHA"},"geometry":{"type":"Point","coordinates":[-71.01623726526304,42.38273395179983]}},{"type":"Feature","properties":{"OBJECTID_1":167,"OBJECTID":152,"SCHID":"5491","NAME":"Excel Academy Charter School - Orient Heights","ADDRESS":"1150 Saratoga St.","TOWN_MAIL":"East Boston","TOWN":"BOSTON","STATE":"MA","ZIP":"02124","PRINCIPAL":" ","PHONE":" ","FAX":" ","GRADES":" ","TYPE":"CHA"},"geometry":{"type":"Point","coordinates":[-70.99945254385287,42.38436828734881]}},{"type":"Feature","properties":{"OBJECTID_1":168,"OBJECTID":142,"SCHID":"5101","NAME":"City On A Hill Charter Public School - Dudley Square","ADDRESS":"2179 Washington Street","TOWN_MAIL":"Roxbury","TOWN":"BOSTON","STATE":"MA","ZIP":"02119","PRINCIPAL":"Sonya Pratt","PHONE":"617-516-5888","FAX":"617-445-9153","GRADES":"9,10,11,12","TYPE":"CHA"},"geometry":{"type":"Point","coordinates":[-71.08270278280553,42.33161893242479]}},{"type":"Feature","properties":{"OBJECTID_1":169,"OBJECTID":145,"SCHID":"5200","NAME":"Conservatory Lab Charter School - Dorchester","ADDRESS":"2120 Dorchester Avenue","TOWN_MAIL":"Dorchester","TOWN":"BOSTON","STATE":"MA","ZIP":"02124","PRINCIPAL":"Robyn Pretlow","PHONE":"617-254-8904","FAX":"617-254-8909","GRADES":"3, 4, 5, 6, 7, 8","TYPE":"CHA"},"geometry":{"type":"Point","coordinates":[-71.06598111364362,42.27687723049515]}},{"type":"Feature","properties":{"OBJECTID_1":170,"OBJECTID":162,"SCHID":"5301","NAME":"Roxbury Prep - Lucy Stone","ADDRESS":"22 Regina Road","TOWN_MAIL":"Dorchester","TOWN":"BOSTON","STATE":"MA","ZIP":"02124","PRINCIPAL":"Dana Lehman","PHONE":"617-979-0115","FAX":"617-822-7527","GRADES":"6,7,8","TYPE":"CHA"},"geometry":{"type":"Point","coordinates":[-71.07083763015345,42.29555817113626]}},{"type":"Feature","properties":{"OBJECTID_1":172,"OBJECTID":164,"SCHID":"5800","NAME":"Youth Build Boston","ADDRESS":"27 Centre Street","TOWN_MAIL":"Roxbury","TOWN":"BOSTON","STATE":"MA","ZIP":"02119","PRINCIPAL":" ","PHONE":" ","FAX":" ","GRADES":" ","TYPE":"CHA"},"geometry":{"type":"Point","coordinates":[-71.093132739495,42.32982560970581]}},{"type":"Feature","properties":{"OBJECTID_1":573,"OBJECTID":139,"SCHID":"5541","NAME":"Bridge Boston Charter School ","ADDRESS":"435 Warren Street","TOWN_MAIL":"Roxbury","TOWN":"BOSTON","STATE":"MA","ZIP":"02119","PRINCIPAL":"Jennifer Daly","PHONE":"857-229-1601","FAX":"617-674-0861","GRADES":" K, 1, 2, 3, 4","TYPE":"CHA"},"geometry":{"type":"Point","coordinates":[-71.08339671169377,42.31681829953527]}},{"type":"Feature","properties":{"OBJECTID_1":973,"OBJECTID":150,"SCHID":"5492","NAME":"Excel Academy Charter High School","ADDRESS":"7 Elkins Street","TOWN_MAIL":"South Boston","TOWN":"BOSTON","STATE":"MA","ZIP":"02127","PRINCIPAL":"Nina Keough","PHONE":"617-874-4143","FAX":"--","GRADES":"9, 10, 11, 12","TYPE":"CHA"},"geometry":{"type":"Point","coordinates":[-71.0358155909248,42.33926870583777]}},{"type":"Feature","properties":{"OBJECTID_1":974,"OBJECTID":154,"SCHID":"5481","NAME":"KIPP Academy Boston","ADDRESS":"37 Babson Street","TOWN_MAIL":"Mattapan","TOWN":"BOSTON","STATE":"MA","ZIP":"02126","PRINCIPAL":"Emily Hepler","PHONE":"617-238-7300","FAX":"617-652-7461","GRADES":"K,1,2,3,4,5,6,7,8","TYPE":"CHA"},"geometry":{"type":"Point","coordinates":[-71.09276688953479,42.27501697224893]}},{"type":"Feature","properties":{"OBJECTID_1":975,"OBJECTID":161,"SCHID":"5303","NAME":"Roxbury Prep - High School","ADDRESS":"86 Wachusett Street","TOWN_MAIL":"Jamaica Plain","TOWN":"BOSTON","STATE":"MA","ZIP":"02130","PRINCIPAL":"Shradha m Patel","PHONE":"--","FAX":"--","GRADES":"9,10,11,12","TYPE":"CHA"},"geometry":{"type":"Point","coordinates":[-71.11454109729016,42.29506707281572]}},{"type":"Feature","properties":{"OBJECTID_1":1373,"OBJECTID":170,"SCHID":"8662","NAME":"Elizabeth Seton Academy","ADDRESS":"2220 Dorchester Ave","TOWN_MAIL":"Dorchester","TOWN":"BOSTON","STATE":"MA","ZIP":"02124","PRINCIPAL":"Patricia Leitsinger","PHONE":"617-296-1087","FAX":"--","GRADES":"9,10,11,12","TYPE":"PRI"},"geometry":{"type":"Point","coordinates":[-71.06684021779895,42.2748751168936]}},{"type":"Feature","properties":{"OBJECTID_1":1374,"OBJECTID":171,"SCHID":"","NAME":"Good Shepherd School","ADDRESS":"20 Winthrop Street","TOWN_MAIL":"Charlestown","TOWN":"BOSTON","STATE":"MA","ZIP":"02129","PRINCIPAL":"Nicolette Clifford","PHONE":"617-242-8800","FAX":"617-242-0016","GRADES":"PK","TYPE":"PRI"},"geometry":{"type":"Point","coordinates":[-71.06159036977319,42.373793777604874]}},{"type":"Feature","properties":{"OBJECTID_1":1375,"OBJECTID":173,"SCHID":"","NAME":"Julie's Family Learning Program","ADDRESS":"133 Dorchester Street","TOWN_MAIL":"South Boston","TOWN":"BOSTON","STATE":"MA","ZIP":"02127","PRINCIPAL":"Robert Monahan","PHONE":"617-269-6663","FAX":"--","GRADES":"PK, K","TYPE":"PRI"},"geometry":{"type":"Point","coordinates":[-71.04723283887294,42.33493645360276]}},{"type":"Feature","properties":{"OBJECTID_1":1376,"OBJECTID":176,"SCHID":"8642","NAME":"Notre Dame Montessori","ADDRESS":"265 Mt. Vernon Street","TOWN_MAIL":"Dorchester","TOWN":"BOSTON","STATE":"MA","ZIP":"02125","PRINCIPAL":" ","PHONE":"--","FAX":"--","GRADES":" ","TYPE":"PRI"},"geometry":{"type":"Point","coordinates":[-71.04625871118306,42.318801362129335]}},{"type":"Feature","properties":{"OBJECTID_1":1377,"OBJECTID":187,"SCHID":"8337","NAME":"St Patrick Elementary","ADDRESS":"131 Mt. Pleasant Ave","TOWN_MAIL":"Roxbury","TOWN":"BOSTON","STATE":"MA","ZIP":"02119","PRINCIPAL":"Mary Lanata","PHONE":"617-427-3881","FAX":"617-427-4529","GRADES":"PK,K,1,2,3,4,5,6,7,8","TYPE":"PRI"},"geometry":{"type":"Point","coordinates":[-71.0762223523087,42.324920482331905]}}]}